{
  "locations": [
    {
      "title": "Disneyland Esplanade",
      "lat": 33.809111,
      "lng": -117.919044
    },
    {
      "title": "Disneyworld Epcot Globe",
      "lat": 28.375336,
      "lng": -81.549402
    },
    {
      "title": "White House",
      "lat": 38.895038,
      "lng": -77.036522
    },
    {
      "title": "Empire State Building",
      "lat": 40.748109,
      "lng": -73.985839
    },
    {
      "title": "Eiffel Tower",
      "lat": 48.858481,
      "lng": 2.293940
    },
    {
      "title": "Coloseum",
      "lat": 41.890768,
      "lng": 12.492410
    },
    {
      "title": "Great Pyramid of Giza",
      "lat": 29.979411,
      "lng": 31.134371
    },
    {
      "title": "Mount Everest",
      "lat": 27.988139,
      "lng": 86.916220
    },
    {
      "title": "Mount Fuji",
      "lat": 35.360642,
      "lng": 138.718609
    },
    {
      "title": "Sydney Opera House",
      "lat": 33.856780,
      "lng": 151.213108
    },
    {
      "title": "Old Faithful",
      "lat": 44.4605,
      "lng": -110.828484
    }
  ]
}
